stop_id,stop_name,stop_lat,stop_lon,wheelchair_boarding                                                                                               
71600,Sant Vicenç De Calders,41.1862102,1.52480358,2                                                                                                  
71601,Calafell,41.1896703,1.57500937,2                                                                                                                
71602,Segur De Calafell,41.1925787,1.60643599,2                                                                                                       
71603,Cunit,41.1950415,1.63194242,2                                                                                                                   
71604,Cubelles,41.2043246,1.67597720,2                                                                                                                
71700,Vilanova I La Geltrú,41.2203207,1.73077249,2                                                                                                    
71701,Sitges,41.2391315,1.80969184,2                                                                                                                  
71703,Garraf (apt),41.2545875,1.90250383,2                                                                                                            
71704,Platja De Castelldefels,41.2669823,1.95713579,2                                                                                                 
71705,Castelldefels,41.2790474,1.97915126,2                                                                                                           
71706,Gavà,41.3034722,2.01053111,2                                                                                                                    
71707,El Prat De Llobregat,41.3309401,2.08934473,2                                                                                                    
71708,Bellvitge I Gornal,41.3549216,2.11527330,2                                                                                                      
71709,Viladecans,41.3095086,2.02741857,2                                                                                                              
71801,Barcelona-Sants,41.3798632,2.14101688,1                                                                                                         
71802,Barcelona-Passeig De Gracia,41.3920862,2.16533862,2                                                                                             
72201,El Vendrell,41.2210057,1.53790552,2                                                                                                             
72202,L'arboc,41.2734041,1.60051857,2                                                                                                                 
72203,Els Monjos,41.3147135,1.65988402,2                                                                                                              
72204,Vilafranca Del Penedes,41.3448139,1.70320131,2                                                                                                  
72205,La Granada,41.3709497,1.72507893,2                                                                                                              
72206,Lavern-Subirats (apd),41.3957338,1.76817358,2                                                                                                   
72207,Sant Sadurni D'anoia,41.4205181,1.79468769,2                                                                                                    
72208,Gelida (apd),41.4485405,1.86552988,2                                                                                                            
72209,Martorell Central,41.4792866,1.92533467,2                                                                                                       
72210,Castellbisbal,41.4734152,1.96756971,2                                                                                                           
72211,El Papiol (apd),41.4353713,2.00257792,2                                                                                                         
72300,Molins De Rei,41.4098958,2.02077275,2                                                                                                           
72301,Sant Feliu De Llobregat,41.3830018,2.04791970,2                                                                                                 
72302,Sant Joan Despi (apd),41.3685805,2.06020835,2                                                                                                   
72303,Cornella,41.3575214,2.07054907,2                                                                                                                
72305,L'hospitalet De Llobregat,41.3642038,2.10091749,2                                                                                               
72400,El Prat Aeroport,41.3041813,2.07340133,2                                                                                                        
72501,Rubi Can Vallhonrat,41.4751763,2.03707926,2                                                                                                     
72502,Sant Cugat Coll Fava,41.4810907,2.07967922,2                                                                                                    
72503,Cerdanyola Universiti,41.4969904,2.11537770,2                                                                                                   
72508,Sta Perpètua De Mogoda Riera De Caldes,41.5262297,2.18633867,2                                                                                  
77002,Montcada-Ripollet,41.4968022,2.18192841,2                                                                                                       
77003,Santa Perpetua De Mogoda La Florida,41.5262041,2.18623384,2                                                                                     
77004,Mollet-Santa Rosa,41.5366617,2.20616865,2                                                                                                       
77005,Parets Del Vallés,41.5562690,2.22600409,2                                                                                                       
77006,Granollers-Canovelles,41.6114637,2.27686073,2                                                                                                   
77100,Les Franqueses Del Vallés,41.6297885,2.29516461,2                                                                                               
77102,La Garriga,41.6846272,2.28879559,2                                                                                                              
77103,Figaró,41.7213454,2.27160129,2                                                                                                                  
77104,Sant Martí De Centelles,41.7605736,2.24890462,2                                                                                                 
77105,Centelles,41.7993947,2.22263552,2                                                                                                               
77106,Els Hostalets De Balenyà,41.8149511,2.23331523,2                                                                                                
77107,Balenyà,41.8419076,2.24744240,2                                                                                                                 
77109,Vic,41.9310958,2.24885665,2                                                                                                                     
77110,Manlleu,41.9998601,2.26929589,2                                                                                                                 
77111,Torelló,42.0520113,2.25997226,2                                                                                                                 
77112,Borgonyà (apd),42.0646586,2.24200567,2                                                                                                          
77113,Sant Quirze De Besora-Montesquiu,42.1048488,2.21773349,2                                                                                        
77114,La Farga De Bebié,42.1300729,2.20393566,2                                                                                                       
77200,Ripoll,42.1961284,2.19584128,2                                                                                                                  
77301,Campdevànol,42.2217131,2.16575839,2                                                                                                             
77303,Ribes De Freser,42.3002126,2.16619947,2                                                                                                         
77304,Planoles (apt),42.3144689,2.09973152,2                                                                                                          
77305,Toses (apt),42.3209639,2.01525836,2                                                                                                             
77306,La Molina,42.3446518,1.95595081,2                                                                                                               
77307,Urtx-Alp (apt),42.3768624,1.89685307,2                                                                                                          
77309,Puigcerdà,42.4296256,1.92458355,2                                                                                                               
77310,La Tour De Carol,42.4590288,1.90438312,2                                                                                                        
78400,Lleida-Pirineus,41.6201300,0.63365328,1                                                                                                         
78402,Bell-Lloc D'urgell,41.6316190,0.78154700,2                                                                                                      
78403,Mollerussa,41.6317790,0.89677500,2                                                                                                              
78404,Golmés,41.6359290,0.93086300,2                                                                                                                  
78405,Castellnou De Seana,41.6374640,0.96773600,2                                                                                                     
78406,Bellpuig,41.6325450,1.01299300,2                                                                                                                
78407,Anglesola,41.6464480,1.07919200,2                                                                                                               
78408,Tàrrega,41.6503870,1.13896300,2                                                                                                                 
78500,Cervera,41.6736110,1.27477300,2                                                                                                                 
78501,Sant Guim De Freixenet,41.6559240,1.42053000,2                                                                                                  
78502,Sant Martí Sesgueioles,41.7012170,1.48620400,2                                                                                                  
78503,Calaf,41.7303340,1.51509700,2                                                                                                                   
78504,Seguers-Sant Pere Sallavinera,41.7479910,1.57416700,2                                                                                           
78505,Aguilar De Segarra,41.7389170,1.62372000,2                                                                                                      
78506,Rajadell,41.7331590,1.69627500,2                                                                                                                
78600,Manresa,41.7203921,1.82648564,2                                                                                                                 
78604,Sant Vicenç De Castellet,41.6688309,1.86264304,2                                                                                                
78605,Castellbell I El Vilar-Monistrol Monts,41.6286826,1.86882093,2                                                                                  
78606,Vacarisses,41.6019280,1.89408790,2                                                                                                              
78607,Vacarisses-Torreblanca,41.5869183,1.91647577,2                                                                                                  
78609,Viladecavalls,41.5637965,1.95727015,2                                                                                                           
78610,Sant Miquel De Gonteres,41.5688661,1.97428484,2                                                                                                 
78700,Terrassa Estacio Nord,41.5697825,2.01435428,2                                                                                                   
78703,Sabadell Sud,41.5287076,2.10539311,2                                                                                                            
78704,Sabadell Centre,41.5464197,2.11560767,2                                                                                                         
78705,Barberá Del Vallés,41.5136598,2.11845269,2                                                                                                      
78706,Cerdanyola Del Vallés,41.4925608,2.14752164,2                                                                                                   
78707,Montcada I Reixac-Santa María,41.4811409,2.16698683,2                                                                                           
78708,Montcada I Reixac-Manresa,41.4839402,2.18540420,2                                                                                               
78709,Sabadell Nord,41.5619773,2.09622844,2                                                                                                           
78710,Terrasa Est,41.5675296,2.03963639,2                                                                                                             
78800,Montcada Bifurcació,41.4698402,2.18001578,2                                                                                                     
78801,Torre  Baro Y Vallbona,41.4609684,2.18102036,2                                                                                                  
78802,Barcelona-Fabra I Puig,41.4303481,2.18332907,2                                                                                                  
78804,Barcelona-Arc De Triomf,41.3919048,2.18063916,2                                                                                                 
78805,Barcelona-Plaça De Catalunya,41.3879231,2.16970383,1                                                                                            
78806,Barcelona La Sagrera Meridiana,41.4218480,2.18711031,2                                                                                          
79004,Barcelona-Sant Andreu,41.4361251,2.19319866,2                                                                                                   
79005,Montcada I Reixac,41.4813853,2.16680713,2                                                                                                       
79006,Mollet-Sant Fost,41.5335634,2.21766516,2                                                                                                        
79007,Montmelo,41.5496523,2.24544407,2                                                                                                                
79009,Barcelona-El Clot,41.4092979,2.18719759,2                                                                                                       
79011,Llagosta,41.5104566,2.19973279,2                                                                                                                
79100,Granollers Centre,41.5997447,2.29126962,1                                                                                                       
79101,Cardedeu,41.6367012,2.35626265,2                                                                                                                
79102,Llinars Del Valles,41.6380367,2.40445769,2                                                                                                      
79103,Palautordera (apd),41.6719522,2.45421488,2                                                                                                      
79104,Sant Celoni,41.6857928,2.49072799,2                                                                                                             
79105,Gualba,41.7181901,2.53878373,2                                                                                                                  
79106,Riells I Viabrea-Breda,41.7263582,2.56889584,2                                                                                                  
79107,Hostalric,41.7477880,2.63165011,2                                                                                                               
79109,Les Franqueses-Granollers Nord,41.6172549,2.29443180,2                                                                                          
79200,Maçanet-Massanes,41.7724212,2.67385865,2                                                                                                        
79202,Sils,41.8075996,2.74500729,2                                                                                                                    
79203,Caldes De Malavella,41.8411100,2.80076692,2                                                                                                     
79204,Riudellots,41.8962970,2.81157037,2                                                                                                              
79205,Fornells De La Selva,41.9350430,2.80978324,2                                                                                                    
79300,Girona,41.9793629,2.81693689,1                                                                                                                  
79301,Celrà,42.0271984,2.87490587,2                                                                                                                   
79302,Bordils-Juià,42.0370568,2.91529561,2                                                                                                            
79303,Flaçà,42.0474770,2.95740315,1                                                                                                                   
79304,Sant Jordi Desvalls,42.0683023,2.96447664,2                                                                                                     
79305,Camallera,42.1223297,2.96536522,2                                                                                                               
79306,Sant Miquel De Fluvià,42.1721019,2.98959828,2                                                                                                   
79308,Vilamalla,42.2163620,2.97776423,2                                                                                                               
79309,Figueres,42.2651134,2.96880074,1                                                                                                                
79311,Vilajuïga,42.3256691,3.08754626,2                                                                                                               
79312,Llançà,42.3666194,3.14897460,2                                                                                                                  
79314,Colera,42.4068837,3.15434316,2                                                                                                                  
79315,Portbou,42.4245908,3.15801841,1                                                                                                                 
79316,Cerbère,42.4416640,3.16314935,2                                                                                                                 
79400,Barcelona-Estació De França,41.3844866,2.18534785,1                                                                                             
79403,Sant Adrià De Besòs (apd),41.4244316,2.23048178,1                                                                                               
79404,Badalona,41.4458838,2.24892096,1                                                                                                                
79405,Montgat,41.4630211,2.27215510,2                                                                                                                 
79406,Montgat-Nord (p),41.4687860,2.28669661,2                                                                                                        
79407,El Masnou,41.4770363,2.31037720,2                                                                                                               
79408,Ocata (apd),41.4790211,2.31953267,2                                                                                                             
79409,Premiá De Mar Apeadero,41.4877522,2.35485608,2                                                                                                  
79410,Vilassar De Mar,41.5006285,2.38986104,2                                                                                                         
79412,Cabrera De Mar,41.5067718,2.40162431,1                                                                                                          
79500,Mataró,41.5333852,2.44553025,1                                                                                                                  
79501,Sant Andreu De Llavaneres (apt),41.5555467,2.49826463,2                                                                                         
79502,Caldes D'estrac,41.5686082,2.52598143,2                                                                                                         
79600,Arenys De Mar,41.5776990,2.54933744,2                                                                                                           
79601,Canet De Mar,41.5866691,2.58128887,2                                                                                                            
79602,Sant Pol De Mar,41.6017549,2.62459756,2                                                                                                         
79603,Calella,41.6146911,2.66599517,1                                                                                                                 
79604,Pineda De Mar,41.6224449,2.69355042,2                                                                                                           
79605,Malgrat Del Mar,41.6416020,2.74127903,2                                                                                                         
79606,Blanes,41.6736157,2.76926970,2                                                                                                                  
79607,Tordera,41.7071687,2.71957063,2                                                                                                                 
79608,Sta.susann,41.6300971,2.71596980,2                                                                                                              
